[
  {
    "name": "Boracay",
    "country": "Philippines",
    "city": "Malay",
    "location": {
      "latitude": 11.968603,
      "longitude": 121.918381
    }
  },
  {
    "name": "Recoleta",
    "country": "Argentina",
    "city": "Buenos Aires",
    "location": {
      "latitude": -34.587448,
      "longitude": -58.397217
    }
  },
  {
    "name": "Canals of Bruges",
    "country": "Belgium",
    "city": "Bruges",
    "location": {
      "latitude": 51.2089200,
      "longitude": 3.2242400
    }
  },
  {
    "name": "The Great Wall of China",
    "country": "China",
    "city": "Huairou",
    "location": {
      "latitude": 40.431908,
      "longitude": 116.570374
    }
  },
  {
    "name": "Monte Alb√°n",
    "country": "Mexico",
    "city": "Oaxaca",
    "location": {
      "latitude": 17.0438,
      "longitude": -96.7681
    }
  },
  {
    "name": "Milford Sound",
    "country": "New Zealand",
    "city": "Milford Sound",
    "location": {
      "latitude": -44.648281,
      "longitude": 167.905777
    }
  },
  {
    "name": "Table Mountain",
    "country": "South Africa",
    "city": "Cape Town",
    "location": {
      "latitude": -33.962864,
      "longitude": 18.409834
    }
  },
  {
    "name": "Stonehenge",
    "country": "United Kingdom",
    "city": "London",
    "location": {
      "latitude": 51.1739726374,
      "longitude": -1.82237671048
    }
  }
]